{"type" : "FeatureCollection", "features" : [{"type": "Feature", "geometry": {"type":"Point","coordinates":[-8.5916,37.1307]}, "properties": {"id": 1, "canon_name": "Ipses", "ancient_name": "Ipses", "modern_name": "Portimâo", "certainty": "Yes", "ref": null, "language": "Latin", "writing": "Latin", "ptq": -100, "atq": -30}}, {"type": "Feature", "geometry": {"type":"Point","coordinates":[-8.511,38.372]}, "properties": {"id": 2, "canon_name": "Salacia / +beuibun", "ancient_name": "Salacia Imperatoria", "modern_name": "Santa Maria do Castelo e Santiago e Santa Susana", "certainty": "Yes", "ref": "Mon.103", "language": "Turdetanian (?)", "writing": "Iberian (South-eastern) | Latin", "ptq": -150, "atq": -50}}, {"type": "Feature", "geometry": {"type":"Point","coordinates":[-8.4333,37.1833]}, "properties": {"id": 3, "canon_name": "Cilpes", "ancient_name": "Cilpes", "modern_name": "Silves", "certainty": "Yes", "ref": null, "language": "Latin", "writing": "Latin", "ptq": -125, "atq": -75}}, {"type": "Feature", "geometry": {"type":"Point","coordinates":[-7.935,37.0161]}, "properties": {"id": 4, "canon_name": "Oso / Osunba", "ancient_name": "Ossonuba", "modern_name": "Faro", "certainty": "Yes", "ref": null, "language": "Latin", "writing": "Latin", "ptq": -100, "atq": -30}}, {"type": "Feature", "geometry": {"type":"Point","coordinates":[-7.9072,38.5725]}, "properties": {"id": 5, "canon_name": "Ebora", "ancient_name": "Liberalitatis Iuliae Ebora", "modern_name": "Évora", "certainty": "Yes", "ref": null, "language": "Latin", "writing": "Latin", "ptq": -12, "atq": 14}}, {"type": "Feature", "geometry": {"type":"Point","coordinates":[-7.865,38.0154]}, "properties": {"id": 6, "canon_name": "Pax Iulia", "ancient_name": "Pax Iulia", "modern_name": "Beja", "certainty": "Yes", "ref": null, "language": "Latin", "writing": "Latin", "ptq": -15, "atq": 14}}, {"type": "Feature", "geometry": {"type":"Point","coordinates":[-7.71666,38.7666]}, "properties": {"id": 7, "canon_name": "Dipo", "ancient_name": "Dipo", "modern_name": "Uncertain: Évoramonte", "certainty": "Uncertain", "ref": null, "language": "Latin", "writing": "Latin", "ptq": -100, "atq": -75}}, {"type": "Feature", "geometry": {"type":"Point","coordinates":[-7.6629,37.6384]}, "properties": {"id": 8, "canon_name": "Murtilis", "ancient_name": "Murtilis", "modern_name": "Mértola", "certainty": "Yes", "ref": null, "language": "Latin", "writing": "Latin", "ptq": -200, "atq": -100}}, {"type": "Feature", "geometry": {"type":"Point","coordinates":[-7.593,37.9407]}, "properties": {"id": 9, "canon_name": "Sirpense", "ancient_name": "Serpa", "modern_name": "Serpa", "certainty": "Yes", "ref": null, "language": "Latin", "writing": "Latin", "ptq": -200, "atq": -100}}, {"type": "Feature", "geometry": {"type":"Point","coordinates":[-7.45,37.2166]}, "properties": {"id": 10, "canon_name": "Baesuri", "ancient_name": "Baesuri", "modern_name": "Faro", "certainty": "Yes", "ref": null, "language": "Latin", "writing": "Latin", "ptq": -50, "atq": 0}}, {"type": "Feature", "geometry": {"type":"Point","coordinates":[-6.9193,37.2575]}, "properties": {"id": 11, "canon_name": "Onuba", "ancient_name": "Onoba", "modern_name": "Uncertain: Huelva (?)", "certainty": "Uncertain", "ref": null, "language": "Latin", "writing": "Latin", "ptq": -100, "atq": -50}}, {"type": "Feature", "geometry": {"type":"Point","coordinates":[-6.6778,37.3614]}, "properties": {"id": 12, "canon_name": "Ilipla", "ancient_name": "Ilipla / Ilipula (?)", "modern_name": "Uncertain: Niebla (?)", "certainty": "Uncertain", "ref": null, "language": "Latin", "writing": "Latin", "ptq": -150, "atq": -100}}, {"type": "Feature", "geometry": {"type":"Point","coordinates":[-6.4954,37.4618]}, "properties": {"id": 13, "canon_name": "Ostur", "ancient_name": "Ostur", "modern_name": "Uncertain: Manzanilla (?)", "certainty": "Uncertain", "ref": null, "language": "Latin", "writing": "Latin", "ptq": -150, "atq": -30}}, {"type": "Feature", "geometry": {"type":"Point","coordinates":[-6.39,37.409]}, "properties": {"id": 14, "canon_name": "Ituci", "ancient_name": "Ituci", "modern_name": "Escacena del Campo", "certainty": "Yes", "ref": null, "language": "Phoenicio-Punic", "writing": "Punic | Latin", "ptq": -200, "atq": -30}}, {"type": "Feature", "geometry": {"type":"Point","coordinates":[-6.3464,38.9176]}, "properties": {"id": 15, "canon_name": "Emerita Augusta", "ancient_name": "Colonia Augusta Emerita", "modern_name": "Mérida", "certainty": "Yes", "ref": null, "language": "Latin", "writing": "Latin", "ptq": -25, "atq": 37}}, {"type": "Feature", "geometry": {"type":"Point","coordinates":[-6.298,36.535]}, "properties": {"id": 16, "canon_name": "Gadir", "ancient_name": "Gades", "modern_name": "Cádiz", "certainty": "Yes", "ref": null, "language": "Phoenicio-Punic", "writing": "Punic", "ptq": -240, "atq": -40}}, {"type": "Feature", "geometry": {"type":"Point","coordinates":[-6.298,36.535]}, "properties": {"id": 17, "canon_name": "Gades", "ancient_name": "Gades", "modern_name": "Cádiz", "certainty": "Yes", "ref": null, "language": "Latin", "writing": "Latin", "ptq": -40, "atq": 37}}, {"type": "Feature", "geometry": {"type":"Point","coordinates":[-6.2642,37.5241]}, "properties": {"id": 18, "canon_name": "Lastigi", "ancient_name": "Lastigi", "modern_name": "Aznalcózar", "certainty": "Yes", "ref": null, "language": "Latin", "writing": "Latin", "ptq": -150, "atq": -100}}, {"type": "Feature", "geometry": {"type":"Point","coordinates":[-6.251,37.304]}, "properties": {"id": 19, "canon_name": "Olontigi", "ancient_name": "Olontigi", "modern_name": "Aznalcázar", "certainty": "Yes", "ref": null, "language": "Phoenicio-Punic", "writing": "Punic | Latin", "ptq": -200, "atq": -30}}, {"type": "Feature", "geometry": {"type":"Point","coordinates":[-6.2073,37.434]}, "properties": {"id": 20, "canon_name": "Laelia", "ancient_name": "Laelia", "modern_name": "Uncertain: Olivares (?)", "certainty": "Uncertain", "ref": null, "language": "Latin", "writing": "Latin", "ptq": -200, "atq": -30}}, {"type": "Feature", "geometry": {"type":"Point","coordinates":[-6.0764,36.9193]}, "properties": {"id": 21, "canon_name": "Nabrissa", "ancient_name": "Nabrissa", "modern_name": "Lebrija", "certainty": "Yes", "ref": null, "language": "Latin", "writing": "Latin", "ptq": -100, "atq": -30}}, {"type": "Feature", "geometry": {"type":"Point","coordinates":[-6.071,39.346]}, "properties": {"id": 22, "canon_name": "tamusia", "ancient_name": "Tamusia", "modern_name": "Botija", "certainty": "Yes", "ref": "Mon.91", "language": "Celtiberian", "writing": "Celtiberian", "ptq": -100, "atq": -75}}, {"type": "Feature", "geometry": {"type":"Point","coordinates":[-6.0516,37.285]}, "properties": {"id": 23, "canon_name": "Caura", "ancient_name": "Caura", "modern_name": "Coria del Río", "certainty": "Yes", "ref": null, "language": "Latin", "writing": "Latin", "ptq": -200, "atq": -150}}, {"type": "Feature", "geometry": {"type":"Point","coordinates":[-6.0433,37.4414]}, "properties": {"id": 24, "canon_name": "Italica", "ancient_name": "Italica", "modern_name": "Santiponce", "certainty": "Yes", "ref": null, "language": "Latin", "writing": "Latin", "ptq": -27, "atq": 37}}, {"type": "Feature", "geometry": {"type":"Point","coordinates":[-6.0277,37.3597]}, "properties": {"id": 25, "canon_name": "Osset", "ancient_name": "Osset", "modern_name": "San Juan de Aznalfarache", "certainty": "Yes", "ref": null, "language": "Latin", "writing": "Latin", "ptq": -100, "atq": -30}}, {"type": "Feature", "geometry": {"type":"Point","coordinates":[-6.0044,37.2738]}, "properties": {"id": 26, "canon_name": "Orippo / Oripense", "ancient_name": "Orippo", "modern_name": "Dos Hermanas", "certainty": "Yes", "ref": null, "language": "Latin", "writing": "Latin", "ptq": -200, "atq": -50}}, {"type": "Feature", "geometry": {"type":"Point","coordinates":[-5.9833,37.3833]}, "properties": {"id": 27, "canon_name": "Colonia Romula", "ancient_name": "Colonia Romula Hispalis", "modern_name": "Sevilla", "certainty": "Yes", "ref": null, "language": "Latin", "writing": "Latin", "ptq": 14, "atq": 19}}, {"type": "Feature", "geometry": {"type":"Point","coordinates":[-5.9781,37.5182]}, "properties": {"id": 28, "canon_name": "Ilipense", "ancient_name": "Ilipa Magna", "modern_name": "Alcalá del Río", "certainty": "Yes", "ref": null, "language": "Latin", "writing": "Latin", "ptq": -200, "atq": -50}}, {"type": "Feature", "geometry": {"type":"Point","coordinates":[-5.97,38.202]}, "properties": {"id": 29, "canon_name": "Turirecina", "ancient_name": "Turriregina", "modern_name": "Uncertain: Casas de Reina (?)", "certainty": "Uncertain", "ref": null, "language": "Libyo-Phoenician", "writing": "Punic | Latin", "ptq": -150, "atq": -50}}, {"type": "Feature", "geometry": {"type":"Point","coordinates":[-5.9367,36.98]}, "properties": {"id": 30, "canon_name": "Cunbaria", "ancient_name": "Conobaria (?)", "modern_name": "Uncertain: Cabezas de San Juan", "certainty": "Uncertain", "ref": null, "language": "Latin", "writing": "Latin", "ptq": -125, "atq": -50}}, {"type": "Feature", "geometry": {"type":"Point","coordinates":[-5.9345,36.8405]}, "properties": {"id": 31, "canon_name": "Cerit", "ancient_name": "Ceret (?)", "modern_name": "Uncertain: Gibalbín (?)", "certainty": "Uncertain", "ref": null, "language": "Latin", "writing": "Latin", "ptq": -100, "atq": -50}}, {"type": "Feature", "geometry": {"type":"Point","coordinates":[-5.927,36.458]}, "properties": {"id": 32, "canon_name": "Asido", "ancient_name": "Asido Caesarina", "modern_name": "Medina-Sidonia", "certainty": "Yes", "ref": null, "language": "Libyo-Phoenician", "writing": "Punic | Latin", "ptq": -150, "atq": -50}}, {"type": "Feature", "geometry": {"type":"Point","coordinates":[-5.92,36.1899]}, "properties": {"id": 33, "canon_name": "Baicipo", "ancient_name": "Baesippo (?)", "modern_name": "Uncertain: Barbate (?)", "certainty": "Uncertain", "ref": null, "language": "Latin", "writing": "Latin", "ptq": -100, "atq": -30}}, {"type": "Feature", "geometry": {"type":"Point","coordinates":[-5.839,37.3404]}, "properties": {"id": 34, "canon_name": "Irippo", "ancient_name": "Irippo", "modern_name": "Alcalá de Guadaira", "certainty": "Yes", "ref": null, "language": "Latin", "writing": "Latin", "ptq": -100, "atq": -30}}, {"type": "Feature", "geometry": {"type":"Point","coordinates":[-5.775,36.09]}, "properties": {"id": 35, "canon_name": "Bailo", "ancient_name": "Baelo Claudia", "modern_name": "Tarifa", "certainty": "Yes", "ref": null, "language": "Libyo-Phoenician", "writing": "Punic | Latin", "ptq": -100, "atq": -50}}, {"type": "Feature", "geometry": {"type":"Point","coordinates":[-5.7517,37.0524]}, "properties": {"id": 36, "canon_name": "Segovia", "ancient_name": "Segovia", "modern_name": "Uncertain: Segovia (?)", "certainty": "Uncertain", "ref": null, "language": "Latin", "writing": "Latin", "ptq": -75, "atq": -25}}, {"type": "Feature", "geometry": {"type":"Point","coordinates":[-5.7517,37.0524]}, "properties": {"id": 37, "canon_name": "Searo", "ancient_name": "Siarum", "modern_name": "Utrera", "certainty": "Yes", "ref": null, "language": "Latin", "writing": "Latin", "ptq": -150, "atq": -75}}, {"type": "Feature", "geometry": {"type":"Point","coordinates":[-5.7287,36.87087]}, "properties": {"id": 38, "canon_name": "Carissa", "ancient_name": "Carissa Aurelia", "modern_name": "Espera", "certainty": "Yes", "ref": null, "language": "Latin", "writing": "Latin", "ptq": -100, "atq": -30}}, {"type": "Feature", "geometry": {"type":"Point","coordinates":[-5.724,36.462]}, "properties": {"id": 39, "canon_name": "Lascuta", "ancient_name": "Lascuta", "modern_name": "Alcalá de los Gazules", "certainty": "Yes", "ref": null, "language": "Libyo-Phoenician", "writing": "Punic | Latin", "ptq": -150, "atq": -75}}, {"type": "Feature", "geometry": {"type":"Point","coordinates":[-5.699,37.1195]}, "properties": {"id": 40, "canon_name": "Salpesa", "ancient_name": "Salpensa", "modern_name": "Utrera", "certainty": "Yes", "ref": null, "language": "Latin", "writing": "Latin", "ptq": -75, "atq": -30}}, {"type": "Feature", "geometry": {"type":"Point","coordinates":[-5.678,38.258]}, "properties": {"id": 41, "canon_name": "Arsa", "ancient_name": "Arsa", "modern_name": "Uncertain: Azuaga (?)", "certainty": "Uncertain", "ref": null, "language": "Libyo-Phoenician", "writing": "Punic", "ptq": -100, "atq": -50}}, {"type": "Feature", "geometry": {"type":"Point","coordinates":[-5.6326,37.4726]}, "properties": {"id": 42, "canon_name": "Carmo", "ancient_name": "Carmo", "modern_name": "Carmona", "certainty": "Yes", "ref": null, "language": "Latin", "writing": "Latin", "ptq": -150, "atq": -75}}, {"type": "Feature", "geometry": {"type":"Point","coordinates":[-5.5831,37.0359]}, "properties": {"id": 43, "canon_name": "Callet", "ancient_name": "Callet", "modern_name": "Montellano", "certainty": "Yes", "ref": null, "language": "Latin", "writing": "Latin", "ptq": -125, "atq": -75}}, {"type": "Feature", "geometry": {"type":"Point","coordinates":[-5.557,36.788]}, "properties": {"id": 44, "canon_name": "Iptuci", "ancient_name": "Iptuci", "modern_name": "Prado del Rey", "certainty": "Yes", "ref": null, "language": "Libyo-Phoenician", "writing": "Punic | Latin", "ptq": -100, "atq": -30}}, {"type": "Feature", "geometry": {"type":"Point","coordinates":[-5.451,36.433]}, "properties": {"id": 45, "canon_name": "Oba", "ancient_name": "Oba", "modern_name": "Jimena de la Frontera", "certainty": "Yes", "ref": null, "language": "Libyo-Phoenician", "writing": "Punic | Latin", "ptq": -100, "atq": -30}}, {"type": "Feature", "geometry": {"type":"Point","coordinates":[-5.4413,36.1161]}, "properties": {"id": 46, "canon_name": "Traducta", "ancient_name": "Iulia Traducta", "modern_name": "Uncertain: ¿Tarifa?", "certainty": "Uncertain", "ref": null, "language": "Latin", "writing": "Latin", "ptq": -12, "atq": -2}}, {"type": "Feature", "geometry": {"type":"Point","coordinates":[-5.4063,36.1859]}, "properties": {"id": 47, "canon_name": "Carteia", "ancient_name": "Carteia", "modern_name": "Tarifa", "certainty": "Yes", "ref": null, "language": "Latin", "writing": "Latin", "ptq": -130, "atq": 15}}, {"type": "Feature", "geometry": {"type":"Point","coordinates":[-5.3463,37.7072]}, "properties": {"id": 48, "canon_name": "Celtitan / Celte", "ancient_name": "Celti (?)", "modern_name": "Uncertain: Peñaflor (?)", "certainty": "Uncertain", "ref": null, "language": "Latin", "writing": "Latin", "ptq": -200, "atq": -100}}, {"type": "Feature", "geometry": {"type":"Point","coordinates":[-5.318,36.519]}, "properties": {"id": 49, "canon_name": "Vesci", "ancient_name": "Vesci", "modern_name": "Uncertain: Gaucín", "certainty": "Uncertain", "ref": null, "language": "Libyo-Phoenician", "writing": "Punic | Latin", "ptq": -125, "atq": -100}}, {"type": "Feature", "geometry": {"type":"Point","coordinates":[-5.2387,36.8318]}, "properties": {"id": 50, "canon_name": "Acinipo", "ancient_name": "Acinipo", "modern_name": "Ronda", "certainty": "Yes", "ref": null, "language": "Latin", "writing": "Latin", "ptq": -100, "atq": -30}}, {"type": "Feature", "geometry": {"type":"Point","coordinates":[-5.019,37.811]}, "properties": {"id": 51, "canon_name": "okanaka", "ancient_name": "Canaca", "modern_name": "Uncertain: Villanueva del Río y Minas (?)", "certainty": "Uncertain", "ref": "Mon.116", "language": "Turdetanian (?)", "writing": "Iberian (South-eastern)", "ptq": -150, "atq": -100}}, {"type": "Feature", "geometry": {"type":"Point","coordinates":[-5.0157,37.8119]}, "properties": {"id": 52, "canon_name": "Carbula", "ancient_name": "Carbula", "modern_name": "Uncertain: Almodóvar del Río", "certainty": "Uncertain", "ref": null, "language": "Latin", "writing": "Latin", "ptq": -125, "atq": -75}}, {"type": "Feature", "geometry": {"type":"Point","coordinates":[-4.7666,37.8833]}, "properties": {"id": 53, "canon_name": "Corduba", "ancient_name": "Corduba", "modern_name": "Córdoba", "certainty": "Yes", "ref": null, "language": "Latin", "writing": "Latin", "ptq": -150, "atq": -100}}, {"type": "Feature", "geometry": {"type":"Point","coordinates":[-4.7666,37.8833]}, "properties": {"id": 54, "canon_name": "Colonia Patricia", "ancient_name": "Corduba Colonia Patricia", "modern_name": "Córdoba", "certainty": "Yes", "ref": null, "language": "Latin", "writing": "Latin", "ptq": -12, "atq": 14}}, {"type": "Feature", "geometry": {"type":"Point","coordinates":[-4.7306,37.2835]}, "properties": {"id": 55, "canon_name": "Ventipo", "ancient_name": "Ventippo", "modern_name": "Casariche", "certainty": "Yes", "ref": null, "language": "Latin", "writing": "Latin", "ptq": -175, "atq": -125}}, {"type": "Feature", "geometry": {"type":"Point","coordinates":[-4.6992,37.6476]}, "properties": {"id": 56, "canon_name": "Ulia", "ancient_name": "Ulia", "modern_name": "Montemayor", "certainty": "Yes", "ref": null, "language": "Latin", "writing": "Latin", "ptq": -200, "atq": -125}}, {"type": "Feature", "geometry": {"type":"Point","coordinates":[-4.6992,37.6476]}, "properties": {"id": 57, "canon_name": "Urso", "ancient_name": "Urso", "modern_name": "Osuna", "certainty": "Yes", "ref": null, "language": "Latin", "writing": "Latin", "ptq": -200, "atq": -100}}, {"type": "Feature", "geometry": {"type":"Point","coordinates":[-4.5166,38.6458]}, "properties": {"id": 58, "canon_name": "Sisapo", "ancient_name": "Sisapo", "modern_name": "Almodóvar del Campo", "certainty": "Yes", "ref": null, "language": "Latin", "writing": "Latin", "ptq": -100, "atq": -30}}, {"type": "Feature", "geometry": {"type":"Point","coordinates":[-4.4882,37.9876]}, "properties": {"id": 59, "canon_name": "Sacili", "ancient_name": "Sacili", "modern_name": "Pedro Abad", "certainty": "Yes", "ref": null, "language": "Latin", "writing": "Latin", "ptq": -175, "atq": -125}}, {"type": "Feature", "geometry": {"type":"Point","coordinates":[-4.417,36.717]}, "properties": {"id": 60, "canon_name": "Malaka", "ancient_name": "Malaca", "modern_name": "Málaga", "certainty": "Yes", "ref": null, "language": "Phoenicio-Punic", "writing": "Punic", "ptq": -200, "atq": -50}}, {"type": "Feature", "geometry": {"type":"Point","coordinates":[-4.2184,37.5807]}, "properties": {"id": 61, "canon_name": "Ipora", "ancient_name": "Epora (?)", "modern_name": "Uncertain: Luque (?)", "certainty": "Uncertain", "ref": null, "language": "Latin", "writing": "Latin", "ptq": -175, "atq": -125}}, {"type": "Feature", "geometry": {"type":"Point","coordinates":[-4.2184,37.5807]}, "properties": {"id": 62, "canon_name": "Aipora", "ancient_name": "Epora (?)", "modern_name": "Uncertain: Montoro (?)", "certainty": "Uncertain", "ref": null, "language": "Latin", "writing": "Latin", "ptq": -100, "atq": -30}}, {"type": "Feature", "geometry": {"type":"Point","coordinates":[-4.193,37.982]}, "properties": {"id": 63, "canon_name": "ibolka", "ancient_name": "Obulco", "modern_name": "Porcuna", "certainty": "Yes", "ref": "Mon.100", "language": "Iberian", "writing": "Iberian (South-eastern) | Latin", "ptq": -225, "atq": -50}}, {"type": "Feature", "geometry": {"type":"Point","coordinates":[-4.0333,39.8666]}, "properties": {"id": 64, "canon_name": "Toleto", "ancient_name": "Toletum", "modern_name": "Toledo", "certainty": "Yes", "ref": null, "language": "Latin", "writing": "Latin", "ptq": -100, "atq": -50}}, {"type": "Feature", "geometry": {"type":"Point","coordinates":[-3.958,37.765]}, "properties": {"id": 65, "canon_name": "Abra", "ancient_name": "Abra", "modern_name": "Uncertain: Torredonjimeno (?)", "certainty": "Uncertain", "ref": "Mon.101", "language": "Iberian", "writing": "Iberian (South-eastern) | Latin", "ptq": -175, "atq": -125}}, {"type": "Feature", "geometry": {"type":"Point","coordinates":[-3.8113,37.231]}, "properties": {"id": 66, "canon_name": "Ilurcon", "ancient_name": "Ilurco", "modern_name": "Pinos Puente", "certainty": "Yes", "ref": null, "language": "Latín (?)", "writing": "Latin", "ptq": -200, "atq": -150}}, {"type": "Feature", "geometry": {"type":"Point","coordinates":[-3.808,37.968]}, "properties": {"id": 67, "canon_name": "Iliturgi", "ancient_name": "Iliturgi", "modern_name": "Mengíbar", "certainty": "Yes", "ref": "Mon.109", "language": "Iberian", "writing": "Latin", "ptq": -200, "atq": -100}}, {"type": "Feature", "geometry": {"type":"Point","coordinates":[-3.691,36.734]}, "properties": {"id": 68, "canon_name": "Seks", "ancient_name": "Sexi", "modern_name": "Almuñécar", "certainty": "Yes", "ref": null, "language": "Phoenicio-Punic", "writing": "Punic | Latin", "ptq": -240, "atq": -50}}, {"type": "Feature", "geometry": {"type":"Point","coordinates":[-3.635,38.093]}, "properties": {"id": 69, "canon_name": "ka?tilo", "ancient_name": "Castulo", "modern_name": "Linares", "certainty": "Yes", "ref": "Mon.97", "language": "Iberian", "writing": "Iberian (South-eastern) | Latin", "ptq": -225, "atq": -50}}, {"type": "Feature", "geometry": {"type":"Point","coordinates":[-3.597,37.176]}, "properties": {"id": 70, "canon_name": "Iliberri ", "ancient_name": "Iliberris", "modern_name": "Granada", "certainty": "Yes", "ref": null, "language": "Latin", "writing": "Latin", "ptq": -100, "atq": -50}}, {"type": "Feature", "geometry": {"type":"Point","coordinates":[-3.597,37.176]}, "properties": {"id": 71, "canon_name": "iltu?i?", "ancient_name": "Iliberris", "modern_name": "Granada", "certainty": "Yes", "ref": "Mon.99", "language": "Iberian", "writing": "Iberian (South-eastern) | Latin", "ptq": -225, "atq": -125}}, {"type": "Feature", "geometry": {"type":"Point","coordinates":[-3.391,41.765]}, "properties": {"id": 72, "canon_name": "kolounioku", "ancient_name": "Clunia", "modern_name": "Coruña del Conde", "certainty": "Yes", "ref": "Mon.67", "language": "Celtiberian", "writing": "Celtiberian", "ptq": -100, "atq": 0}}, {"type": "Feature", "geometry": {"type":"Point","coordinates":[-3.364,40.481]}, "properties": {"id": 73, "canon_name": "ikezankom konbouto", "ancient_name": "Complutum", "modern_name": "Uncertain: Alcalá de Henares (?)", "certainty": "Uncertain", "ref": "Mon.74", "language": "Celtiberian", "writing": "Celtiberian", "ptq": -100, "atq": -75}}, {"type": "Feature", "geometry": {"type":"Point","coordinates":[-3.148,41.33]}, "properties": {"id": 74, "canon_name": "tarmeskom", "ancient_name": "Tiermes", "modern_name": "Montejo de Tiermes", "certainty": "Yes", "ref": "Mon.81", "language": "Celtiberian", "writing": "Celtiberian", "ptq": -150, "atq": -75}}, {"type": "Feature", "geometry": {"type":"Point","coordinates":[-3.1371,37.2995]}, "properties": {"id": 75, "canon_name": "Acci", "ancient_name": "Iulia Gemella Acci", "modern_name": "Guadix", "certainty": "Yes", "ref": null, "language": "Latin", "writing": "Latin", "ptq": -27, "atq": 37}}, {"type": "Feature", "geometry": {"type":"Point","coordinates":[-3.066,41.587]}, "properties": {"id": 76, "canon_name": "arkailikos", "ancient_name": "Uxama Argaela", "modern_name": "El Burgo de Osma", "certainty": "Yes", "ref": "Mon.62", "language": "Celtiberian", "writing": "Celtiberian", "ptq": -130, "atq": -100}}, {"type": "Feature", "geometry": {"type":"Point","coordinates":[-3.052,38.899]}, "properties": {"id": 77, "canon_name": "labini", "ancient_name": "Laminium", "modern_name": "Uncertain: Alhambra (?)", "certainty": "Uncertain", "ref": "Mon.112", "language": "Iberian", "writing": "Iberian (South-eastern)", "ptq": -200, "atq": -25}}, {"type": "Feature", "geometry": {"type":"Point","coordinates":[-3.024,42.141]}, "properties": {"id": 78, "canon_name": "sekisamos", "ancient_name": "Segisamo", "modern_name": "Uncertain: Canales de la Sierra (?)", "certainty": "Uncertain", "ref": "Mon.69", "language": "Celtiberian", "writing": "Celtiberian", "ptq": -100, "atq": -75}}, {"type": "Feature", "geometry": {"type":"Point","coordinates":[-3.018,36.75]}, "properties": {"id": 79, "canon_name": "Abdera", "ancient_name": "Abdera", "modern_name": "Adra", "certainty": "Yes", "ref": null, "language": "Phoenicio-Punic", "writing": "Punic | Latin", "ptq": -200, "atq": 37}}, {"type": "Feature", "geometry": {"type":"Point","coordinates":[-2.803,39.919]}, "properties": {"id": 80, "canon_name": "Segobriga", "ancient_name": "Segobriga", "modern_name": "Saelices", "certainty": "Yes", "ref": null, "language": "Latin", "writing": "Latin", "ptq": -27, "atq": 41}}, {"type": "Feature", "geometry": {"type":"Point","coordinates":[-2.803,39.919]}, "properties": {"id": 81, "canon_name": "sekobirikez", "ancient_name": "Segobris", "modern_name": "Uncertain: Saelices (?)", "certainty": "Uncertain", "ref": "Mon.89", "language": "Celtiberian", "writing": "Celtiberian | Latin", "ptq": -125, "atq": -100}}, {"type": "Feature", "geometry": {"type":"Point","coordinates":[-2.777,37.142]}, "properties": {"id": 82, "canon_name": "Alba", "ancient_name": "Alba", "modern_name": "Abla", "certainty": "Yes", "ref": null, "language": "Phoenicio-Punic", "writing": "Punic", "ptq": -100, "atq": -30}}, {"type": "Feature", "geometry": {"type":"Point","coordinates":[-2.718,39.093]}, "properties": {"id": 83, "canon_name": "konterbia karbika", "ancient_name": "Contrebia Carbica", "modern_name": "Huete", "certainty": "Yes", "ref": "Mon.106", "language": "Celtiberian", "writing": "Celtiberian", "ptq": -125, "atq": -75}}, {"type": "Feature", "geometry": {"type":"Point","coordinates":[-2.717,42.401]}, "properties": {"id": 84, "canon_name": "titiakos", "ancient_name": "Tritium", "modern_name": "Uncertain: Tricio (?)", "certainty": "Uncertain", "ref": "Mon.58", "language": "Celtiberian", "writing": "Celtiberian", "ptq": -150, "atq": -90}}, {"type": "Feature", "geometry": {"type":"Point","coordinates":[-2.635,40.401]}, "properties": {"id": 85, "canon_name": "Ercavica", "ancient_name": "Ercavica", "modern_name": "Cañaveruelas", "certainty": "Yes", "ref": null, "language": "Latin", "writing": "Latin", "ptq": -13, "atq": 39}}, {"type": "Feature", "geometry": {"type":"Point","coordinates":[-2.635,40.401]}, "properties": {"id": 86, "canon_name": "erkauika", "ancient_name": "Ercavica", "modern_name": "Uncertain: Cañaveruelas (?)", "certainty": "Uncertain", "ref": "Mon.64", "language": "Celtiberian", "writing": "Celtiberian", "ptq": -150, "atq": -50}}, {"type": "Feature", "geometry": {"type":"Point","coordinates":[-2.498,37.401]}, "properties": {"id": 87, "canon_name": "Tagilit", "ancient_name": "Tagilit", "modern_name": "Tíjola", "certainty": "Yes", "ref": null, "language": "Phoenicio-Punic", "writing": "Punic", "ptq": -240, "atq": -150}}, {"type": "Feature", "geometry": {"type":"Point","coordinates":[-2.464,41.763]}, "properties": {"id": 88, "canon_name": "sekotiaz lakaz", "ancient_name": "Segontia Langa", "modern_name": "Langa de Duero", "certainty": "Yes", "ref": "Mon.77", "language": "Celtiberian", "writing": "Celtiberian", "ptq": -125, "atq": -75}}, {"type": "Feature", "geometry": {"type":"Point","coordinates":[-2.371,42.515]}, "properties": {"id": 89, "canon_name": "uarakos", "ancient_name": "Vareia", "modern_name": "Uncertain: Logroño (?)", "certainty": "Uncertain", "ref": "Mon.59", "language": "Celtiberian", "writing": "Celtiberian", "ptq": -125, "atq": -75}}, {"type": "Feature", "geometry": {"type":"Point","coordinates":[-2.243,40.973]}, "properties": {"id": 90, "canon_name": "lutiakos", "ancient_name": "Lutia", "modern_name": "Uncertain: Luzaga", "certainty": "Uncertain", "ref": "Mon.76", "language": "Celtiberian", "writing": "Celtiberian", "ptq": -100, "atq": -70}}, {"type": "Feature", "geometry": {"type":"Point","coordinates":[-1.965,42.303]}, "properties": {"id": 91, "canon_name": "kalakorikos", "ancient_name": "Calagurris", "modern_name": "Calahorra", "certainty": "Yes", "ref": "Mon.53", "language": "Vasconic", "writing": "Celtiberian", "ptq": -150, "atq": -100}}, {"type": "Feature", "geometry": {"type":"Point","coordinates":[-1.965,42.303]}, "properties": {"id": 92, "canon_name": "Calagurris", "ancient_name": "Calagurris Iulia Nasica", "modern_name": "Calahorra", "certainty": "Yes", "ref": null, "language": "Latin", "writing": "Latin", "ptq": -27, "atq": 37}}, {"type": "Feature", "geometry": {"type":"Point","coordinates":[-1.7453,42.1838]}, "properties": {"id": 93, "canon_name": "Graccurris", "ancient_name": "Graccurris", "modern_name": "Alfaro", "certainty": "Yes", "ref": null, "language": "Latin", "writing": "Latin", "ptq": 14, "atq": 37}}, {"type": "Feature", "geometry": {"type":"Point","coordinates":[-1.725,41.902]}, "properties": {"id": 94, "canon_name": "turiazu", "ancient_name": "Turiaso", "modern_name": "Tarazona", "certainty": "Yes", "ref": "Mon.51", "language": "Celtiberian", "writing": "Celtiberian", "ptq": -125, "atq": -25}}, {"type": "Feature", "geometry": {"type":"Point","coordinates":[-1.725,41.902]}, "properties": {"id": 95, "canon_name": "Turiaso", "ancient_name": "Turiaso", "modern_name": "Tarazona", "certainty": "Yes", "ref": null, "language": "Latin", "writing": "Latin", "ptq": -29, "atq": 37}}, {"type": "Feature", "geometry": {"type":"Point","coordinates":[-1.679,41.997]}, "properties": {"id": 96, "canon_name": "kaiskata", "ancient_name": "Cascantum", "modern_name": "Cascante", "certainty": "Yes", "ref": "Mon.49", "language": "Celtiberian", "writing": "Celtiberian", "ptq": -150, "atq": -30}}, {"type": "Feature", "geometry": {"type":"Point","coordinates":[-1.679,41.997]}, "properties": {"id": 97, "canon_name": "Cascantum", "ancient_name": "Cascantum", "modern_name": "Cascante", "certainty": "Yes", "ref": null, "language": "Latin", "writing": "Latin", "ptq": 14, "atq": 37}}, {"type": "Feature", "geometry": {"type":"Point","coordinates":[-1.647,41.354]}, "properties": {"id": 98, "canon_name": "bilbiliz", "ancient_name": "Bilbilis", "modern_name": "Calatayud", "certainty": "Yes", "ref": "Mon.73", "language": "Celtiberian", "writing": "Celtiberian", "ptq": -125, "atq": -75}}, {"type": "Feature", "geometry": {"type":"Point","coordinates":[-1.647,41.354]}, "properties": {"id": 99, "canon_name": "Bilbilis", "ancient_name": "Bilbilis Italica", "modern_name": "Calatayud", "certainty": "Yes", "ref": null, "language": "Latin", "writing": "Latin", "ptq": -27, "atq": 32}}, {"type": "Feature", "geometry": {"type":"Point","coordinates":[-1.531,41.835]}, "properties": {"id": 100, "canon_name": "burzau", "ancient_name": "Bursao", "modern_name": "Uncertain: Borja (?)", "certainty": "Uncertain", "ref": "Mon.48", "language": "Celtiberian", "writing": "Celtiberian", "ptq": -150, "atq": -50}}, {"type": "Feature", "geometry": {"type":"Point","coordinates":[-1.517,41.289]}, "properties": {"id": 101, "canon_name": "sekaiza / sekeiza", "ancient_name": "Segeda", "modern_name": "Mara", "certainty": "Yes", "ref": "Mon.78", "language": "Celtiberian", "writing": "Celtiberian", "ptq": -150, "atq": -50}}, {"type": "Feature", "geometry": {"type":"Point","coordinates":[-1.461,41.832]}, "properties": {"id": 102, "canon_name": "karauez", "ancient_name": "Caravis", "modern_name": "Uncertain: Magallón (?)", "certainty": "Uncertain", "ref": "Mon.66", "language": "Celtiberian", "writing": "Celtiberian", "ptq": -100, "atq": -50}}, {"type": "Feature", "geometry": {"type":"Point","coordinates":[-1.375,41.477]}, "properties": {"id": 103, "canon_name": "nertobis", "ancient_name": "Nertobriga", "modern_name": "La Almunia de Doña Godina", "certainty": "Yes", "ref": "Mon.50", "language": "Celtiberian", "writing": "Celtiberian", "ptq": -150, "atq": -100}}, {"type": "Feature", "geometry": {"type":"Point","coordinates":[-1.137,42.129]}, "properties": {"id": 104, "canon_name": "sekia", "ancient_name": "Segia", "modern_name": "Ejea de los Caballeros", "certainty": "Yes", "ref": "Mon.43", "language": "Vasconic", "writing": "Iberian (North-eastern) (?)", "ptq": -150, "atq": -90}}, {"type": "Feature", "geometry": {"type":"Point","coordinates":[-1.03,41.509]}, "properties": {"id": 105, "canon_name": "kontebakom bel", "ancient_name": "Contrebia Belaisca", "modern_name": "Botorrita", "certainty": "Yes", "ref": "Mon.75", "language": "Celtiberian", "writing": "Celtiberian", "ptq": -125, "atq": -75}}, {"type": "Feature", "geometry": {"type":"Point","coordinates":[-1.03,41.509]}, "properties": {"id": 106, "canon_name": "belaiskom", "ancient_name": "Contrebia Belaisca", "modern_name": "Uncertain: Botorrita (?)", "certainty": "Uncertain", "ref": "Mon.80", "language": "Celtiberian", "writing": "Celtiberian", "ptq": -125, "atq": -75}}, {"type": "Feature", "geometry": {"type":"Point","coordinates":[-0.999,41.642]}, "properties": {"id": 107, "canon_name": "alaun", "ancient_name": "Allauona", "modern_name": "Alagón", "certainty": "Yes", "ref": "Mon.16", "language": "Iberian", "writing": "Iberian (North-eastern)", "ptq": -150, "atq": -50}}, {"type": "Feature", "geometry": {"type":"Point","coordinates":[-0.9819,37.6019]}, "properties": {"id": 108, "canon_name": "Carthago Nova", "ancient_name": "Colonia Urbs Iulia Nova Karthago ", "modern_name": "Cartagena", "certainty": "Yes", "ref": null, "language": "Latin", "writing": "Latin", "ptq": -50, "atq": 41}}, {"type": "Feature", "geometry": {"type":"Point","coordinates":[-0.879,41.656]}, "properties": {"id": 109, "canon_name": "Caesaraugusta", "ancient_name": "Colonia Caesar Augusta", "modern_name": "Zaragoza", "certainty": "Yes", "ref": null, "language": "Latin", "writing": "Latin", "ptq": -13, "atq": 41}}, {"type": "Feature", "geometry": {"type":"Point","coordinates":[-0.784,40.691]}, "properties": {"id": 110, "canon_name": "tamaniu", "ancient_name": "Damania (?)", "modern_name": "Uncertain; Hinojosa de Jarque (?)", "certainty": "Uncertain", "ref": "Mon.79", "language": "Celtiberian", "writing": "Celtiberian", "ptq": -150, "atq": -75}}, {"type": "Feature", "geometry": {"type":"Point","coordinates":[-0.711,39.389]}, "properties": {"id": 111, "canon_name": "kili", "ancient_name": "Gili", "modern_name": "Turís", "certainty": "Yes", "ref": "Mon.34", "language": "Iberian", "writing": "Iberian (North-eastern) | Latin", "ptq": -200, "atq": -50}}, {"type": "Feature", "geometry": {"type":"Point","coordinates":[-0.6965,38.2401]}, "properties": {"id": 112, "canon_name": "Ilici", "ancient_name": "Ilici", "modern_name": "La Alcudia de Elche", "certainty": "Yes", "ref": null, "language": "Latin", "writing": "Latin", "ptq": -40, "atq": 37}}, {"type": "Feature", "geometry": {"type":"Point","coordinates":[-0.549,42.527]}, "properties": {"id": 113, "canon_name": "iaka", "ancient_name": "Iacca", "modern_name": "Jaca", "certainty": "Yes", "ref": "Mon.41", "language": "Vasconic", "writing": "Iberian (North-eastern) (?)", "ptq": -125, "atq": -70}}, {"type": "Feature", "geometry": {"type":"Point","coordinates":[-0.519,38.988]}, "properties": {"id": 114, "canon_name": "?aitabi", "ancient_name": "Saetabi", "modern_name": "Xátiva", "certainty": "Yes", "ref": "Mon.35", "language": "Iberian", "writing": "Iberian (North-eastern) | Latin", "ptq": -225, "atq": -50}}, {"type": "Feature", "geometry": {"type":"Point","coordinates":[-0.445,41.213]}, "properties": {"id": 115, "canon_name": "Osicerda", "ancient_name": "Osicerda", "modern_name": "La Puebla de Híjar", "certainty": "Yes", "ref": null, "language": "Latin", "writing": "Latin", "ptq": 14, "atq": 36}}, {"type": "Feature", "geometry": {"type":"Point","coordinates":[-0.445,41.213]}, "properties": {"id": 116, "canon_name": "usekerte", "ancient_name": "Osicerda", "modern_name": "Uncertain: La Puebla de Híjar (?)", "certainty": "Uncertain", "ref": "Mon.26", "language": "Iberian", "writing": "Iberian (North-eastern) | Latin", "ptq": -75, "atq": -50}}, {"type": "Feature", "geometry": {"type":"Point","coordinates":[-0.437,41.374]}, "properties": {"id": 117, "canon_name": "kelse", "ancient_name": "Celsa", "modern_name": "Velilla de Ebro", "certainty": "Yes", "ref": "Mon.21", "language": "Iberian", "writing": "Iberian (North-eastern) | Latin", "ptq": -150, "atq": -50}}, {"type": "Feature", "geometry": {"type":"Point","coordinates":[-0.437,41.374]}, "properties": {"id": 118, "canon_name": "Celsa", "ancient_name": "Colonia Lepida Celsa", "modern_name": "Velilla de Ebro", "certainty": "Yes", "ref": null, "language": "Latin", "writing": "Latin", "ptq": -50, "atq": 37}}, {"type": "Feature", "geometry": {"type":"Point","coordinates":[-0.41,42.137]}, "properties": {"id": 119, "canon_name": "Osca", "ancient_name": "Municipio Urbs Victrix Osca", "modern_name": "Huesca", "certainty": "Yes", "ref": null, "language": "Latin", "writing": "Latin", "ptq": -40, "atq": 41}}, {"type": "Feature", "geometry": {"type":"Point","coordinates":[-0.41,42.137]}, "properties": {"id": 120, "canon_name": "bol?kan / bol?ken", "ancient_name": "Osca", "modern_name": "Huesca", "certainty": "Yes", "ref": "Mon.40", "language": "Vasconic", "writing": "Iberian (North-eastern) (?)", "ptq": -150, "atq": -100}}, {"type": "Feature", "geometry": {"type":"Point","coordinates":[-0.3763,39.471]}, "properties": {"id": 121, "canon_name": "Valentia", "ancient_name": "Valentia", "modern_name": "Valencia", "certainty": "Yes", "ref": null, "language": "Latin", "writing": "Latin", "ptq": -127, "atq": -75}}, {"type": "Feature", "geometry": {"type":"Point","coordinates":[-0.278,39.68]}, "properties": {"id": 122, "canon_name": "arse", "ancient_name": "Saguntum", "modern_name": "Sagunto", "certainty": "Yes", "ref": "Mon.33", "language": "Iberian", "writing": "Iberian (North-eastern) | Latin", "ptq": -350, "atq": 37}}, {"type": "Feature", "geometry": {"type":"Point","coordinates":[0.625,41.614]}, "properties": {"id": 123, "canon_name": "ilti?ta", "ancient_name": "Ilerda", "modern_name": "Lleida", "certainty": "Yes", "ref": "Mon.18", "language": "Iberian", "writing": "Iberian (North-eastern) | Latin", "ptq": -220, "atq": 13}}, {"type": "Feature", "geometry": {"type":"Point","coordinates":[1.046,42.119]}, "properties": {"id": 124, "canon_name": "e?o", "ancient_name": "Aeso", "modern_name": "Uncertain: Isona i Conca Dellà", "certainty": "Uncertain", "ref": "Mon.17", "language": "Iberian", "writing": "Iberian (North-eastern)", "ptq": -100, "atq": -50}}, {"type": "Feature", "geometry": {"type":"Point","coordinates":[1.245,41.118]}, "properties": {"id": 125, "canon_name": "Tarraco", "ancient_name": "Colonia Urbs Triumphalis Tarraco", "modern_name": "Tarragona", "certainty": "Yes", "ref": null, "language": "Latin", "writing": "Latin", "ptq": -2, "atq": 23}}, {"type": "Feature", "geometry": {"type":"Point","coordinates":[1.245,41.118]}, "properties": {"id": 126, "canon_name": "kese", "ancient_name": "Tarraco", "modern_name": "Tarragona", "certainty": "Yes", "ref": "Mon.12", "language": "Iberian", "writing": "Iberian (North-eastern)", "ptq": -220, "atq": -75}}, {"type": "Feature", "geometry": {"type":"Point","coordinates":[1.29,41.786]}, "properties": {"id": 127, "canon_name": "ie?o", "ancient_name": "Iesso", "modern_name": "Guissona", "certainty": "Yes", "ref": "Mon.10", "language": "Iberian", "writing": "Iberian (North-eastern)", "ptq": -150, "atq": -50}}, {"type": "Feature", "geometry": {"type":"Point","coordinates":[1.4328,38.9089]}, "properties": {"id": 128, "canon_name": "Iboshim", "ancient_name": "Ebusus", "modern_name": "Eivissa", "certainty": "Yes", "ref": null, "language": "Phoenicio-Punic", "writing": "Punic", "ptq": -330, "atq": -27}}, {"type": "Feature", "geometry": {"type":"Point","coordinates":[1.4328,38.9089]}, "properties": {"id": 129, "canon_name": "Ebusus", "ancient_name": "Ebusus", "modern_name": "Eivissa", "certainty": "Yes", "ref": null, "language": "Latin", "writing": "Latin", "ptq": 14, "atq": 54}}, {"type": "Feature", "geometry": {"type":"Point","coordinates":[2.165,41.629]}, "properties": {"id": 130, "canon_name": "eu?tibaikula", "ancient_name": "Baicula", "modern_name": "Uncertain: Caldes de Montbui (?)", "certainty": "Uncertain", "ref": "Mon.09", "language": "Iberian", "writing": "Iberian (North-eastern)", "ptq": -200, "atq": -80}}, {"type": "Feature", "geometry": {"type":"Point","coordinates":[2.176,41.382]}, "properties": {"id": 131, "canon_name": "ba?keno", "ancient_name": "Barcino", "modern_name": "Barcelona", "certainty": "Yes", "ref": "Mon.110", "language": "Iberian", "writing": "Iberian (North-eastern)", "ptq": -225, "atq": -175}}, {"type": "Feature", "geometry": {"type":"Point","coordinates":[2.247,41.45]}, "properties": {"id": 132, "canon_name": "baitolo", "ancient_name": "Baetulo", "modern_name": "Badalona", "certainty": "Yes", "ref": "Mon.08", "language": "Iberian", "writing": "Iberian (North-eastern)", "ptq": -125, "atq": -75}}, {"type": "Feature", "geometry": {"type":"Point","coordinates":[2.254,41.93]}, "properties": {"id": 133, "canon_name": "au?esken", "ancient_name": "Ausa", "modern_name": "Vic", "certainty": "Yes", "ref": "Mon.07", "language": "Iberian", "writing": "Iberian (North-eastern)", "ptq": -200, "atq": -100}}, {"type": "Feature", "geometry": {"type":"Point","coordinates":[2.402,41.508]}, "properties": {"id": 134, "canon_name": "ilturo", "ancient_name": "Iluro", "modern_name": "Cabrera de Mar", "certainty": "Yes", "ref": "Mon.11", "language": "Iberian", "writing": "Iberian (North-eastern)", "ptq": -200, "atq": -100}}, {"type": "Feature", "geometry": {"type":"Point","coordinates":[3.1116,42.1342]}, "properties": {"id": 135, "canon_name": "Emporion", "ancient_name": "Emporiae", "modern_name": "L'Escala", "certainty": "Yes", "ref": null, "language": "Greek", "writing": "Greek", "ptq": -500, "atq": -50}}, {"type": "Feature", "geometry": {"type":"Point","coordinates":[3.1116,42.1342]}, "properties": {"id": 136, "canon_name": "Emporiae", "ancient_name": "Emporiae", "modern_name": "L'Escala", "certainty": "Yes", "ref": null, "language": "Latin", "writing": "Latin", "ptq": -45, "atq": 0}}, {"type": "Feature", "geometry": {"type":"Point","coordinates":[3.175,42.2633]}, "properties": {"id": 137, "canon_name": "Rodeton", "ancient_name": "Rhode", "modern_name": "Rosas", "certainty": "Yes", "ref": "No", "language": "Greek", "writing": "Greek", "ptq": -550, "atq": -400}}]}